[{"id":"140193","title":"MOLECULAR-SCALE ELECTRONICS: Concepts, Contacts and Stability \u0022MOLESCO\u0022","participants":[{"name":"UNIVERSITY OF DURHAM","country":"GB","city":"DURHAM","lat":"54.7749","lon":"-1.56975"},{"name":"IBM RESEARCH GMBH","country":"CH","city":"RUESCHLIKON","lat":"47.3074","lon":"8.54802"},{"name":"FRIEDRICH-ALEXANDER-UNIVERSITAT ERLANGEN NURNBERG","country":"DE","city":"ERLANGEN","lat":"49.5977","lon":"11.0047"},{"name":"UNIVERSITAET BERN","country":"CH","city":"BERN","lat":"46.9504","lon":"7.43815"},{"name":"LANCASTER UNIVERSITY","country":"GB","city":"LANCASTER","lat":"54.0139","lon":"-2.78792"},{"name":"UNIVERSITAET BASEL","country":"CH","city":"BASEL","lat":"47.5588","lon":"7.58261"},{"name":"FUNDACION IMDEA NANOCIENCIA","country":"ES","city":"MADRID"},{"name":"SYDDANSK UNIVERSITET","country":"DK","city":"ODENSE M","lat":"55.3684","lon":"10.4277"},{"name":"TECHNISCHE UNIVERSITEIT DELFT","country":"NL","city":"DELFT","lat":"51.9991","lon":"4.37566"},{"name":"UNIVERSITAET REGENSBURG","country":"DE","city":"REGENSBURG"}],"url":"http:\/\/cordis.lab\/project\/molecular-scale-electronics-concepts-contacts-and-stability-molesco\/140193","rcn":"109272","cost":"3985376","funding":"3985376","project_acronym":"MOLESCO","start_date":"1388530800","end_date":"1514674800"},{"id":"140195","title":"Biopolymer Based FOOd Delivery Systems","participants":[{"name":"KOBENHAVNS UNIVERSITET","country":"DK","city":"KOBENHAVN K","lat":"55.6805","lon":"12.5712"},{"name":"CR COMPETENCE AB","country":"SE","city":"LUND","lat":"54.4949","lon":"9.0319"},{"name":"CHR. HANSEN A\/S","country":"DK","city":"HOERSHOLM","lat":"55.8734","lon":"12.4876"},{"name":"PRODIGEST","country":"BE","city":"GENT ZWIJNAARDE","lat":"51.01","lon":"3.70971"},{"name":"RUPRECHT-KARLS-UNIVERSITAET HEIDELBERG","country":"DE","city":"HEIDELBERG"},{"name":"UNIVERSIT\u00c9 DE LORRAINE","country":"FR","city":"NANCY","lat":"48.6962","lon":"6.17654"},{"name":"UNIVERSITEIT GENT","country":"BE","city":"GENT","lat":"51.0477","lon":"3.72721"},{"name":"AGENCIA ESTATAL CONSEJO SUPERIOR DE INVESTIGACIONES CIENTIFICAS","country":"ES","city":"MADRID","lat":"40.4387","lon":"-3.68603"},{"name":"UNIVERSIDAD DE ALCALA","country":"ES","city":"ALCALA DE HENARES\/MADRID","lat":"40.4832","lon":"-3.3633"},{"name":"LUNDS UNIVERSITET","country":"SE","city":"LUND","lat":"55.7062","lon":"13.1936"},{"name":"UNIVERSIDADE DE COIMBRA","country":"PT","city":"COIMBRA","lat":"40.3307","lon":"-8.3945"}],"url":"http:\/\/cordis.lab\/project\/biopolymer-based-food-delivery-systems\/140195","rcn":"111461","cost":"3765084","funding":"3765084","project_acronym":"BIBAFOODS","start_date":"1391209200","end_date":"1517353200"},{"id":"140197","title":"Hit to lead optimisation of novel anti-TB scaffolds through an academic-industrial partnership","participants":[{"name":"THE UNIVERSITY OF BIRMINGHAM","country":"GB","city":"BIRMINGHAM","lat":"52.4649","lon":"-1.93154"},{"name":"GLAXOSMITHKLINE INVESTIGACION Y DESARROLLO SL","country":"ES","city":"TRES CANTOS","lat":"40.5964","lon":"-3.71141"}],"url":"http:\/\/cordis.lab\/project\/hit-lead-optimisation-novel-anti-tb-scaffolds-through-academic-industrial-partnership\/140197","rcn":"109720","cost":"1174366","funding":"1174366","project_acronym":"COOPERA-TB","start_date":"1391209200","end_date":"1517353200"},{"id":"140201","title":"European Academy for Marine and Underwater Robotics","participants":[{"name":"DEUTSCHES FORSCHUNGSZENTRUM FUER KUENSTLICHE INTELLIGENZ GMBH","country":"DE","city":"KAISERSLAUTERN","lat":"49.4335","lon":"7.7575"},{"name":"HERIOT-WATT UNIVERSITY","country":"GB","city":"EDINBURGH","lat":"55.9088","lon":"-3.32221"},{"name":"TALLINNA TEHNIKAULIKOOL","country":"EE","city":"TALLINN","lat":"59.4067","lon":"24.6677"},{"name":"UNIVERSITAT DE GIRONA","country":"ES","city":"GIRONA","lat":"41.9722","lon":"2.81988"},{"name":"NATURAL ENVIRONMENT RESEARCH COUNCIL","country":"GB","city":"SWINDON WILTSHIRE","lat":"51.5558","lon":"-1.77972"},{"name":"NATO SCIENCE AND TECHNOLOGY ORGANISATION","country":"BE","city":"BRUXELLES","lat":"50.8596","lon":"4.40025"},{"name":"NATIONAL TECHNICAL UNIVERSITY OF ATHENS - NTUA","country":"EL","city":"ATHINA"},{"name":"ATLAS ELEKTRONIK GMBH","country":"DE","city":"BREMEN","lat":"53.0583","lon":"8.89961"},{"name":"SEEBYTE LTD","country":"UK","city":"EDINBURGH","lat":"55.9554","lon":"-3.22351"},{"name":"GRAAL TECH SRL","country":"IT","city":"GENOVA","lat":"44.4095","lon":"8.94492"}],"url":"http:\/\/cordis.lab\/project\/european-academy-marine-and-underwater-robotics\/140201","rcn":"109990","cost":"3610611","funding":"3610611","project_acronym":"ROBOCADEMY","start_date":"1388530800","end_date":"1514674800"},{"id":"140204","title":"Training in Multiscale Analysis of multi-Phase Particulate Processes (T-MAPPP)","participants":[{"name":"THE UNIVERSITY OF EDINBURGH","country":"GB","city":"EDINBURGH","lat":"55.9475","lon":"-3.18648"},{"name":"JOHNSON MATTHEY PLC.","country":"GB","city":"LONDON","lat":"51.5164","lon":"-0.104899"},{"name":"UNIVERSITEIT TWENTE","country":"NL","city":"ENSCHEDE","lat":"52.24","lon":"6.85124"},{"name":"RESEARCH CENTER PHARMACEUTICAL ENGINEERING GMBH","country":null,"city":null},{"name":"TECHNISCHE UNIVERSITAET BRAUNSCHWEIG","country":"DE","city":"BRAUNSCHWEIG","lat":"52.2689","lon":"10.5268"},{"name":"PROCTER \u0026 GAMBLE TECHNICAL CENTRESLIMITED","country":"GB","city":"WEYBRIDGE"},{"name":"UNIVERSITE DE TECHNOLOGIE DE COMPIEGNE","country":"FR","city":"COMPIEGNE","lat":"49.4148","lon":"2.81788"},{"name":"DCS Computing GmbH","country":"AT","city":"LINZ","lat":"48.3361","lon":"14.3231"},{"name":"CENTRE INTERNACIONAL DE METODES NUMERICS EN ENGINYERIA","country":"ES","city":"BARCELONA","lat":"41.3872","lon":"2.11111"},{"name":"DEM Solutions Ltd","country":"UK","city":"Edinburgh","lat":"55.954","lon":"-3.20265"}],"url":"http:\/\/cordis.lab\/project\/training-multiscale-analysis-multi-phase-particulate-processes-t-mappp\/140204","rcn":"109361","cost":"4046406","funding":"4046406","project_acronym":"T-MAPPP","start_date":"1393628400","end_date":"1519772400"},{"id":"140207","title":"European Training in Neural Regulation of Intestinal Function","participants":[{"name":"EBERHARD KARLS UNIVERSITAET TUEBINGEN","country":"DE","city":"TUEBINGEN","lat":"48.4673","lon":"8.93458"},{"name":"INSTITUT NATIONAL DE LA RECHERCHE AGRONOMIQUE","country":"FR","city":"PARIS CEDEX 07","lat":"48.861","lon":"2.31409"},{"name":"TECHNISCHE UNIVERSITAET MUENCHEN","country":"DE","city":"MUENCHEN","lat":"48.1514","lon":"11.5705"},{"name":"ACADEMISCH MEDISCH CENTRUM BIJ DE UNIVERSITEIT VAN AMSTERDAM","country":"NL","city":"AMSTERDAM","lat":"52.295","lon":"4.95361"},{"name":"ALMA MATER STUDIORUM-UNIVERSITA DI BOLOGNA","country":"IT","city":"BOLOGNA","lat":"44.4973","lon":"11.3531"},{"name":"KATHOLIEKE UNIVERSITEIT LEUVEN","country":"BE","city":"LEUVEN","lat":"50.8781","lon":"4.69956"},{"name":"THE UNIVERSITY OF SHEFFIELD","country":"GB","city":"SHEFFIELD","lat":"53.3811","lon":"-1.47009"},{"name":"GOETEBORGS UNIVERSITET","country":"SE","city":"GOETEBORG","lat":"57.6987","lon":"11.971"},{"name":"UNIVERSITAT AUTONOMA DE BARCELONA","country":"ES","city":"CERDANYOLA DEL VALLES","lat":"41.4998","lon":"2.09884"},{"name":"QUEEN MARY AND WESTFIELD COLLEGE, UNIVERSITY OF LONDON","country":"GB","city":"LONDON","lat":"51.5225","lon":"-0.0418852"},{"name":"GIVEN IMAGING LTD","country":"IL","city":"YOQNEAM"},{"name":"SYMBIO PHARM GMBH","country":"DE","city":"HERBORN","lat":"50.6729","lon":"8.28063"}],"url":"http:\/\/cordis.lab\/project\/european-training-neural-regulation-intestinal-function\/140207","rcn":"111417","cost":"3687557","funding":"3687557","project_acronym":"NEUROGUT","start_date":"1391209200","end_date":"1517353200"},{"id":"140209","title":"Improving Children\u0027s Auditory Rehabilitation","participants":[{"name":"KATHOLIEKE UNIVERSITEIT LEUVEN","country":"BE","city":"LEUVEN","lat":"50.8781","lon":"4.69956"},{"name":"RHEINISCH-WESTFAELISCHE TECHNISCHE HOCHSCHULE AACHEN","country":"DE","city":"AACHEN","lat":"50.7771","lon":"6.07787"},{"name":"LINKOPINGS UNIVERSITET","country":"SE","city":"LINKOPING","lat":"58.3985","lon":"15.5745"},{"name":"STICHTING KATHOLIEKE UNIVERSITEIT","country":"NL","city":"NIJMEGEN","lat":"51.8198","lon":"5.85737"},{"name":"UNIVERSITY COLLEGE LONDON","country":"GB","city":"LONDON","lat":"51.5225","lon":"-0.132641"},{"name":"UNIVERSITY OF MACEDONIA","country":"EL","city":"THESSALONIKI"},{"name":"HOGSKOLAN I GAVLE","country":"SE","city":"GAVLE","lat":"60.6717","lon":"17.1308"},{"name":"COCHLEAR RESEARCH AND DEVELOPMENT LIMITED","country":"GB","city":"ADDLESTONE","lat":"51.372","lon":"-0.473691"},{"name":"NOLDUS INFORMATION TECHNOLOGY BV","country":"NL","city":"WAGENINGEN","lat":"51.9744","lon":"5.64258"}],"url":"http:\/\/cordis.lab\/project\/improving-childrens-auditory-rehabilitation\/140209","rcn":"109497","cost":"4085629","funding":"4085629","project_acronym":"ICARE","start_date":"1388530800","end_date":"1514674800"},{"id":"140210","title":"Training network on reactive geological systems from the mantle to the abyssal sub-seafloor","participants":[{"name":"CENTRE NATIONAL DE LA RECHERCHE SCIENTIFIQUE","country":"FR","city":"PARIS","lat":"48.8432","lon":"2.26019"},{"name":"AGENCIA ESTATAL CONSEJO SUPERIOR DE INVESTIGACIONES CIENTIFICAS","country":"ES","city":"MADRID","lat":"40.4387","lon":"-3.68603"},{"name":"UNIVERSITY OF SOUTHAMPTON","country":"GB","city":"SOUTHAMPTON","lat":"50.9323","lon":"-1.39744"},{"name":"UNIVERSITAET BREMEN","country":"DE","city":"BREMEN","lat":"53.1086","lon":"8.85162"},{"name":"INSTITUT DE PHYSIQUE DU GLOBE DE PARIS","country":"FR","city":"PARIS","lat":"48.846","lon":"2.3552"},{"name":"UNIVERSITA DEGLI STUDI DI MILANO","country":"IT","city":"MILANO","lat":"45.4607","lon":"9.19415"},{"name":"UNIVERSITA DEGLI STUDI DI GENOVA","country":"IT","city":"GENOVA","lat":"44.4156","lon":"8.92508"},{"name":"GOTTFRIED WILHELM LEIBNIZ UNIVERSITAET HANNOVER","country":"DE","city":"HANNOVER","lat":"52.3823","lon":"9.71812"},{"name":"UNIVERSITETET I OSLO","country":"NO","city":"OSLO","lat":"59.942","lon":"10.7207"},{"name":"NORGES TEKNISK-NATURVITENSKAPELIGE UNIVERSITET NTNU","country":"NO","city":"TRONDHEIM","lat":"63.4172","lon":"10.4072"}],"url":"http:\/\/cordis.lab\/project\/training-network-reactive-geological-systems-mantle-abyssal-sub-seafloor\/140210","rcn":"109123","cost":"4171064","funding":"4171064","project_acronym":"ABYSS","start_date":"1393628400","end_date":"1519772400"},{"id":"140212","title":"FLUOR21 : Synthesis, structure and function of fluorinated systems","participants":[{"name":"UNIVERSITY OF DURHAM","country":"GB","city":"DURHAM","lat":"54.7749","lon":"-1.56975"},{"name":"UNIVERSITY COLLEGE DUBLIN, NATIONAL UNIVERSITY OF IRELAND, DUBLIN","country":"IE","city":"DUBLIN","lat":"53.3093","lon":"-6.2178"},{"name":"WESTFAELISCHE WILHELMS-UNIVERSITAET MUENSTER","country":"DE","city":"MUENSTER","lat":"51.9644","lon":"7.61332"},{"name":"FREIE UNIVERSITAET BERLIN","country":"DE","city":"BERLIN","lat":"52.4484","lon":"13.2874"},{"name":"USTAV ORGANICKE CHEMIE A BIOCHEMIE, AV CR, V.V.I.","country":"CZ","city":"PRAHA 6","lat":"50.1049","lon":"14.3912"},{"name":"ASTRAZENECA AB","country":"SE","city":"SODERTAELJE"},{"name":"THE UNIVERSITY COURT OF THE UNIVERSITY OF ST ANDREWS","country":"GB","city":"ST ANDREWS","lat":"56.3413","lon":"-2.79497"},{"name":"UNIVERSITE DE NEUCHATEL","country":"CH","city":"NEUCHATEL","lat":"46.9919","lon":"6.93204"},{"name":"ALMAC SCIENCES LIMITED","country":"UK","city":"CRAIGAVON","lat":"54.4434","lon":"-6.42429"}],"url":"http:\/\/cordis.lab\/project\/fluor21-synthesis-structure-and-function-fluorinated-systems\/140212","rcn":"109282","cost":"3301293","funding":"3301293","project_acronym":"FLUOR21","start_date":"1393628400","end_date":"1519772400"},{"id":"140213","title":"Design of novel high performance catalysts and biosensors based on deposited mass-selected clusters assisted by computational theoretical screening","participants":[{"name":"KATHOLIEKE UNIVERSITEIT LEUVEN","country":"BE","city":"LEUVEN","lat":"50.8781","lon":"4.69956"},{"name":"THE UNIVERSITY OF BIRMINGHAM","country":"GB","city":"BIRMINGHAM","lat":"52.4649","lon":"-1.93154"},{"name":"DANMARKS TEKNISKE UNIVERSITET","country":"DK","city":"KONGENS LYNGBY","lat":"55.786","lon":"12.5241"},{"name":"UNIVERSITA\u0027 DEGLI STUDI DI MILANO-BICOCCA","country":"IT","city":"MILANO","lat":"45.5115","lon":"9.21032"},{"name":"TEL AVIV UNIVERSITY","country":"IL","city":"TEL AVIV","lat":"32.1075","lon":"34.796"},{"name":"UNIVERSITA DEGLI STUDI DI MILANO","country":"IT","city":"MILANO","lat":"45.4607","lon":"9.19415"},{"name":"TEER COATINGS LIMITED","country":"GB","city":"DROITWICH"}],"url":"http:\/\/cordis.lab\/project\/design-novel-high-performance-catalysts-and-biosensors-based-deposited-mass-selected","rcn":"109498","cost":"3938144","funding":"3938144","project_acronym":"CATSENSE","start_date":"1388530800","end_date":"1514674800"},{"id":"140214","title":"\u0022Virtual vials\u0022 for enhanced biomolecular analysis","participants":[{"name":"TECHNION - ISRAEL INSTITUTE OF TECHNOLOGY","country":"IL","city":"HAIFA","lat":"32.8304","lon":"34.9743"},{"name":"IBM RESEARCH GMBH","country":"CH","city":"RUESCHLIKON","lat":"47.3074","lon":"8.54802"}],"url":"http:\/\/cordis.lab\/project\/virtual-vials-enhanced-biomolecular-analysis\/140214","rcn":"109721","cost":"776610","funding":"776610","project_acronym":"VIRTUALVIALS","start_date":"1393628400","end_date":"1519772400"},{"id":"140215","title":"Nanoscale Materials for Energy: Fundamentals, Applications and Safety","participants":[{"name":"LUNDS UNIVERSITET","country":"SE","city":"LUND","lat":"55.7062","lon":"13.1936"}],"url":"http:\/\/cordis.lab\/project\/nanoscale-materials-energy-fundamentals-applications-and-safety\/140215","rcn":"111329","cost":"3184248","funding":"3184248","project_acronym":"PHD4ENERGY","start_date":"1391209200","end_date":"1517353200"},{"id":"140216","title":"Transforming industrial agrichemical research through the development of novel chemical tools and technologies to investigate molecular interactions","participants":[{"name":"IMPERIAL COLLEGE OF SCIENCE, TECHNOLOGY AND MEDICINE","country":"GB","city":"LONDON","lat":"51.4982","lon":"-0.174115"}],"url":"http:\/\/cordis.lab\/project\/transforming-industrial-agrichemical-research-through-development-novel-chemical-tools-and","rcn":"109362","cost":"3816692","funding":"3816692","project_acronym":"NEXGENAGRICHEM","start_date":"1393628400","end_date":"1519772400"},{"id":"140217","title":"Industry and Doctoral Training in Vote Advice Applications","participants":[{"name":"THE UNIVERSITY OF EXETER","country":"GB","city":"EXETER","lat":"50.7349","lon":"-3.53571"},{"name":"KIESKOMPAS","country":"NL","city":"AMSTERDAM","lat":"52.3348","lon":"4.87369"}],"url":"http:\/\/cordis.lab\/project\/industry-and-doctoral-training-vote-advice-applications\/140217","rcn":"109506","cost":"880775","funding":"880775","project_acronym":"VOTEADVICE","start_date":"1398895200","end_date":"1525039200"},{"id":"140219","title":"MICSED - Molecular Interactions in Complex Systems","participants":[{"name":"UNIVERSITY OF DURHAM","country":"GB","city":"DURHAM","lat":"54.7749","lon":"-1.56975"},{"name":"PROCTER AND GAMBLE SERVICE GMBH","country":"DE","city":"SCHWALBACH AM TAUNUS","lat":"50.1439","lon":"8.53081"}],"url":"http:\/\/cordis.lab\/project\/micsed-molecular-interactions-complex-systems\/140219","rcn":"111462","cost":"1467956","funding":"1467956","project_acronym":"MICSED","start_date":"1391209200","end_date":"1517353200"},{"id":"140220","title":"Metric Analysis for Emergent Technologies","participants":[{"name":"ALMA MATER STUDIORUM-UNIVERSITA DI BOLOGNA","country":"IT","city":"BOLOGNA","lat":"44.4973","lon":"11.3531"},{"name":"UNIVERSITA DEGLI STUDI DI TRENTO","country":"IT","city":"TRENTO","lat":"46.0687","lon":"11.1212"},{"name":"HELSINGIN YLIOPISTO","country":"FI","city":"HELSINGIN YLIOPISTO","lat":"60.1699","lon":"24.9493"},{"name":"JYVASKYLAN YLIOPISTO","country":"FI","city":"JYVASKYLA","lat":"62.2377","lon":"25.734"},{"name":"UNIVERSITE PARIS-SUD","country":"FR","city":"ORSAY CEDEX","lat":"48.6982","lon":"2.18177"},{"name":"CENTRE NATIONAL DE LA RECHERCHE SCIENTIFIQUE","country":"FR","city":"PARIS","lat":"48.8432","lon":"2.26019"},{"name":"UNIVERSITAT AUTONOMA DE BARCELONA","country":"ES","city":"CERDANYOLA DEL VALLES","lat":"41.4998","lon":"2.09884"},{"name":"UNIVERSITAET BERN","country":"CH","city":"BERN","lat":"46.9504","lon":"7.43815"},{"name":"TECHNISCHE UNIVERSITEIT EINDHOVEN","country":"NL","city":"EINDHOVEN","lat":"51.4478","lon":"5.48608"}],"url":"http:\/\/cordis.lab\/project\/metric-analysis-emergent-technologies\/140220","rcn":"109584","cost":"3663975","funding":"3663975","project_acronym":"MANET","start_date":"1393628400","end_date":"1519772400"},{"id":"140221","title":"Complementary Synthetic Strategies toward Heterocyclic Boronates","participants":[{"name":"THE UNIVERSITY OF SHEFFIELD","country":"GB","city":"SHEFFIELD","lat":"53.3811","lon":"-1.47009"},{"name":"SANOFI-AVENTIS DEUTSCHLAND GMBH","country":"DE","city":"FRANKFURT\/MAIN","lat":"50.1109","lon":"8.68213"}],"url":"http:\/\/cordis.lab\/project\/complementary-synthetic-strategies-toward-heterocyclic-boronates\/140221","rcn":"109273","cost":"587133","funding":"587133","project_acronym":"COSSHNET","start_date":"1388530800","end_date":"1514674800"},{"id":"140223","title":"Gravitational Wave Initial Training Network","participants":[{"name":"EUROPEAN GRAVITATIONAL OBSERVATORY","country":"IT","city":"CASCINA","lat":"43.6582","lon":"10.5057"},{"name":"ISTITUTO NAZIONALE DI FISICA NUCLEARE","country":"IT","city":"FRASCATI","lat":"41.817","lon":"12.6744"},{"name":"LZH LASERZENTRUM HANNOVER E.V.","country":"DE","city":"HANNOVER","lat":"52.4146","lon":"9.63123"},{"name":"MAX PLANCK GESELLSCHAFT ZUR FOERDERUNG DER WISSENSCHAFTEN E.V.","country":"DE","city":"MUENCHEN","lat":"48.1423","lon":"11.5789"},{"name":"GOOCH \u0026 HOUSEGO (UK) LIMITED","country":"GB","city":"ILMINSTER","lat":"50.9147","lon":"-2.91637"},{"name":"THE UNIVERSITY OF BIRMINGHAM","country":"GB","city":"BIRMINGHAM","lat":"52.4649","lon":"-1.93154"},{"name":"UNIVERSITY OF GLASGOW","country":"GB","city":"GLASGOW","lat":"55.873","lon":"-4.28982"},{"name":"BOOSTEC SAS","country":"FR","city":"BAZET"},{"name":"UNIVERSITA DI PISA","country":"IT","city":"PISA","lat":"43.7166","lon":"10.3989"}],"url":"http:\/\/cordis.lab\/project\/gravitational-wave-initial-training-network\/140223","rcn":"110302","cost":"3670303","funding":"3670303","project_acronym":"GRAWITON","start_date":"1391209200","end_date":"1517353200"},{"id":"140224","title":"Numerical characterization and simulation of the complex physics underpinning the Safe handling of Liquefied Natural Gas","participants":[{"name":"KINGSTON UNIVERSITY HIGHER EDUCATION CORPORATION","country":"GB","city":"KINGSTON UPON THAMES","lat":"51.4063","lon":"-0.307846"}],"url":"http:\/\/cordis.lab\/project\/numerical-characterization-and-simulation-complex-physics-underpinning-safe-handling","rcn":"109543","cost":"1761549","funding":"1761549","project_acronym":"SAFELNG","start_date":"1391209200","end_date":"1517353200"},{"id":"140228","title":"Socio-economic and Political Responses to Regional Polarisation in Central and Eastern Europe","participants":[{"name":"LEIBNIZ-INSTITUT FUR LANDERKUNDE EV","country":"DE","city":"LEIPZIG","lat":"51.3479","lon":"12.4719"},{"name":"OSAUHING GEOMEDIA","country":"EE","city":"TARTU LINN","lat":"58.3607","lon":"26.7278"},{"name":"IQ CONSULT GGMBH","country":"DE","city":"POTSDAM","lat":"52.4039","lon":"13.0728"},{"name":"MEPCO, SRO","country":"CZ","city":"PRAHA","lat":"50.0811","lon":"14.4198"},{"name":"MAGYAR TUDOMANYOS AKADEMIA KOZGAZDASAG- ES REGIONALIS TUDOMANYI KUTATOKOZPONT","country":"HU","city":"PECS","lat":"46.0795","lon":"18.2309"},{"name":"SLOVENSKA TECHNICKA UNIVERZITA V BRATISLAVE","country":"SK","city":"BRATISLAVA","lat":"48.1546","lon":"17.1175"},{"name":"UNIVERSITATEA BABES BOLYAI","country":"RO","city":"CLUJ-NAPOCA","lat":"45.7797","lon":"23.9529"},{"name":"TARTU ULIKOOL","country":"EE","city":"TARTU","lat":"58.3791","lon":"26.7225"}],"url":"http:\/\/cordis.lab\/project\/socio-economic-and-political-responses-regional-polarisation-central-and-eastern-europe","rcn":"109877","cost":"3165808","funding":"3165808","project_acronym":"REGPOL\u00c2\u00b2","start_date":"1388530800","end_date":"1514674800"},{"id":"140230","title":"A multidisciplinary Doctoral Industrial School on novel preventive strategies against E. Coli infections","participants":[{"name":"NOVARTIS VACCINES AND DIAGNOSTICS S.R.L.","country":"IT","city":"SIENA","lat":"43.3404","lon":"11.3058"},{"name":"INSTITUT NATIONAL DE LA RECHERCHE AGRONOMIQUE","country":"FR","city":"PARIS CEDEX 07","lat":"48.861","lon":"2.31409"}],"url":"http:\/\/cordis.lab\/project\/multidisciplinary-doctoral-industrial-school-novel-preventive-strategies-against-e-coli","rcn":"109501","cost":"1009587","funding":"1009587","project_acronym":"DISCO","start_date":"1396303200","end_date":"1522447200"},{"id":"140231","title":"SURFS-UP: Freak Waves and Breaking Wave Impact on Offshore Structures","participants":[{"name":"UNIVERSITY OF LEEDS","country":"GB","city":"LEEDS","lat":"53.808","lon":"-1.55215"},{"name":"STICHTING MARITIEM RESEARCH INSTITUUT NEDERLAND","country":"NL","city":"WAGENINGEN","lat":"51.9708","lon":"5.65527"}],"url":"http:\/\/cordis.lab\/project\/surfs-freak-waves-and-breaking-wave-impact-offshore-structures\/140231","rcn":"111463","cost":"587134","funding":"587134","project_acronym":"SURFSUP","start_date":"1391209200","end_date":"1517353200"},{"id":"140232","title":"Prolong Organ Survival After Transplantation","participants":[{"name":"UNIVERSITY OF NEWCASTLE UPON TYNE","country":"GB","city":"NEWCASTLE UPON TYNE","lat":"54.9814","lon":"-1.61425"}],"url":"http:\/\/cordis.lab\/project\/prolong-organ-survival-after-transplantation\/140232","rcn":"109146","cost":"1174367","funding":"1174367","project_acronym":"POSAT","start_date":"1393628400","end_date":"1519772400"},{"id":"140234","title":"Training in Embedded Predictive Control and Optimization","participants":[{"name":"NORGES TEKNISK-NATURVITENSKAPELIGE UNIVERSITET NTNU","country":"NO","city":"TRONDHEIM","lat":"63.4172","lon":"10.4072"},{"name":"KATHOLIEKE UNIVERSITEIT LEUVEN","country":"BE","city":"LEUVEN","lat":"50.8781","lon":"4.69956"},{"name":"EIDGENOESSISCHE TECHNISCHE HOCHSCHULE ZURICH","country":"CH","city":"ZUERICH","lat":"47.3727","lon":"8.55052"},{"name":"ECOLE POLYTECHNIQUE FEDERALE DE LAUSANNE","country":"CH","city":"LAUSANNE","lat":"46.5206","lon":"6.56885"},{"name":"SLOVENSKA TECHNICKA UNIVERZITA V BRATISLAVE","country":"SK","city":"BRATISLAVA","lat":"48.1546","lon":"17.1175"},{"name":"ECOLE SUPERIEURE D\u0027ELECTRICITE","country":"FR","city":"GIF SUR YVETTE CEDEX"},{"name":"IMPERIAL COLLEGE OF SCIENCE, TECHNOLOGY AND MEDICINE","country":"GB","city":"LONDON","lat":"51.4982","lon":"-0.174115"},{"name":"AMPYX POWER BV","country":"NL","city":"DEN HAAG","lat":"52.0636","lon":"4.32695"},{"name":"RENAULT SAS","country":"FR","city":"BOULOGNE BILLANCOURT"}],"url":"http:\/\/cordis.lab\/project\/training-embedded-predictive-control-and-optimization\/140234","rcn":"109545","cost":"3926584","funding":"3926584","project_acronym":"TEMPO","start_date":"1391209200","end_date":"1517353200"},{"id":"140236","title":"Complex wetting phenomena","participants":[{"name":"TECHNISCHE UNIVERSITAET DARMSTADT","country":"DE","city":"DARMSTADT","lat":"49.8753","lon":"8.65629"},{"name":"ARISTOTELIO PANEPISTIMIO THESSALONIKIS","country":"GR","city":"THESSALONIKI","lat":"40.6394","lon":"22.9446"},{"name":"THE HEBREW UNIVERSITY OF JERUSALEM.","country":"IL","city":"JERUSALEM","lat":"31.7731","lon":"35.1968"},{"name":"LOUGHBOROUGH UNIVERSITY","country":"GB","city":"LOUGHBOROUGH, LEICESTERSHIRE","lat":"52.7673","lon":"-1.23625"},{"name":"MAX PLANCK GESELLSCHAFT ZUR FOERDERUNG DER WISSENSCHAFTEN E.V.","country":"DE","city":"MUENCHEN","lat":"48.1423","lon":"11.5789"},{"name":"UNIVERSIDAD COMPLUTENSE DE MADRID","country":"ES","city":"MADRID","lat":"40.4168","lon":"-3.70379"},{"name":"UNIWERSYTET MARII CURIE-SKLODOWSKIEJ","country":"PL","city":"LUBLIN","lat":"51.246","lon":"22.5426"},{"name":"UNIVERSITEIT TWENTE","country":"NL","city":"ENSCHEDE","lat":"52.24","lon":"6.85124"},{"name":"EVONIK INDUSTRIES AG","country":"DE","city":"ESSEN","lat":"51.4377","lon":"7.02788"},{"name":"MICROPORE TECHNOLOGIES LTD","country":"UK","city":"HATTON DERBYSHIRE","lat":"52.8665","lon":"-1.68108"},{"name":"UNILEVER U.K. CENTRAL RESOURCES LIMITED","country":"GB","city":"LONDON","lat":"51.5117","lon":"-0.105064"}],"url":"http:\/\/cordis.lab\/project\/complex-wetting-phenomena\/140236","rcn":"109365","cost":"3909747","funding":"3909747","project_acronym":"COWET","start_date":"1388530800","end_date":"1514674800"},{"id":"140242","title":"Forest resources for Iberian Empires: Ecology and Globalization in the Age of Discovery","participants":[{"name":"AGENCIA ESTATAL CONSEJO SUPERIOR DE INVESTIGACIONES CIENTIFICAS","country":"ES","city":"MADRID","lat":"40.4387","lon":"-3.68603"},{"name":"FACULDADE DE CIENCIAS SOCIAIS E HUMANAS DA UNIVERSIDADE NOVA DE LISBOA","country":"PT","city":"Lisboa","lat":"38.7399","lon":"-9.15134"},{"name":"UNIVERSIDADE DE SANTIAGO DE COMPOSTELA","country":"ES","city":"SANTIAGO DE COMPOSTELA","lat":"42.8809","lon":"-8.54545"},{"name":"UNIVERSITY OF WALES TRINITY SAINT DAVID ROYAL CHARTER","country":"UK","city":"CARMARTHEN","lat":"51.8591","lon":"-4.32186"},{"name":"MARITIME ARCHAEOLOGY LTD","country":"UK","city":"SOUTHAMPTON HAMPSHIRE","lat":"50.8929","lon":"-1.39511"},{"name":"WAGENINGEN UNIVERSITY","country":null,"city":null},{"name":"UNIVERSITEIT LEIDEN","country":"NL","city":"LEIDEN","lat":"52.1567","lon":"4.48676"},{"name":"RIJKSUNIVERSITEIT GRONINGEN","country":"NL","city":"GRONINGEN","lat":"53.2193","lon":"6.56315"},{"name":"UNIVERSIT\u00c9 DE LORRAINE","country":"FR","city":"NANCY","lat":"48.6962","lon":"6.17654"}],"url":"http:\/\/cordis.lab\/project\/forest-resources-iberian-empires-ecology-and-globalization-age-discovery\/140242","rcn":"111385","cost":"3904166","funding":"3904166","project_acronym":"FORSEADISCOVERY","start_date":"1391209200","end_date":"1517353200"},{"id":"140243","title":"Perception and Action in Health and Disease","participants":[{"name":"STICHTING KATHOLIEKE UNIVERSITEIT","country":"NL","city":"NIJMEGEN","lat":"51.8198","lon":"5.85737"}],"url":"http:\/\/cordis.lab\/project\/perception-and-action-health-and-disease\/140243","rcn":"109211","cost":"3325547","funding":"3325547","project_acronym":"HEALTHPAC","start_date":"1388530800","end_date":"1514674800"},{"id":"140248","title":"Allied Initiative for Training and Education in Coherent Optical Networks","participants":[{"name":"ASTON UNIVERSITY","country":"GB","city":"BIRMINGHAM","lat":"52.4855","lon":"-1.88801"},{"name":"KUNGLIGA TEKNISKA HOEGSKOLAN","country":"SE","city":"STOCKHOLM","lat":"59.3462","lon":"18.0725"},{"name":"AGENCIA ESTATAL CONSEJO SUPERIOR DE INVESTIGACIONES CIENTIFICAS","country":"ES","city":"MADRID","lat":"40.4387","lon":"-3.68603"},{"name":"DANMARKS TEKNISKE UNIVERSITET","country":"DK","city":"KONGENS LYNGBY","lat":"55.786","lon":"12.5241"},{"name":"UNIVERSITY COLLEGE LONDON","country":"GB","city":"LONDON","lat":"51.5225","lon":"-0.132641"},{"name":"FIBER OPTICS CONSULTING SERVICES AND TECHNOLOGIES SL","country":"ES","city":"MADRID","lat":"40.4269","lon":"-3.69584"},{"name":"SWEDISH ICT RESEARCH AB","country":"SE","city":"KISTA","lat":"59.405","lon":"17.9495"},{"name":"VPIPHOTONICS GMBH","country":"DE","city":"BERLIN","lat":"52.5237","lon":"13.3203"},{"name":"BELGACOM SA","country":"BE","city":"BRUXELLES","lat":"50.8601","lon":"4.35809"},{"name":"TELEKOMUNIKACJA POLSKA S.A.","country":"PL","city":"WARSZAWA","lat":"52.2344","lon":"20.9993"}],"url":"http:\/\/cordis.lab\/project\/allied-initiative-training-and-education-coherent-optical-networks\/140248","rcn":"110923","cost":"4097330","funding":"4097330","project_acronym":"ICONE","start_date":"1391209200","end_date":"1517353200"},{"id":"140249","title":"NANOCARRIERS FOR THE DELIVERY OF ANTIMICROBIAL AGENTS TO FIGHT RESISTANCE MECHANISMS","participants":[{"name":"CENTRE NATIONAL DE LA RECHERCHE SCIENTIFIQUE","country":"FR","city":"PARIS","lat":"48.8432","lon":"2.26019"},{"name":"NATIONAL CENTER FOR SCIENTIFIC RESEARCH \u0022DEMOKRITOS\u0022","country":"GR","city":"AGHIA PARASKEVI","lat":"37.9999","lon":"23.8167"},{"name":"UNIVERSIDAD DE CASTILLA - LA MANCHA","country":"ES","city":"CIUDAD REAL","lat":"38.9919","lon":"-3.92685"},{"name":"UNIVERSIDAD DE ALMERIA","country":"ES","city":"ALMERIA","lat":"36.8545","lon":"-2.41099"},{"name":"UNIVERSITA DEGLI STUDI DI CATANIA","country":"IT","city":"CATANIA"},{"name":"CONSIGLIO NAZIONALE DELLE RICERCHE","country":"IT","city":"ROMA","lat":"41.901","lon":"12.5122"},{"name":"HASKOLI ISLANDS","country":"IS","city":"REYKJAVIK","lat":"64.1372","lon":"-21.9546"},{"name":"HELLENIC PASTEUR INSTITUTE","country":"GR","city":"ATHENS","lat":"37.9837","lon":"23.7293"},{"name":"GOETEBORGS UNIVERSITET","country":"SE","city":"GOETEBORG","lat":"57.6987","lon":"11.971"},{"name":"CYCLOLAB CIKLODEXTRIN KUTATO-FEJLES","country":"HU","city":"BUDAPEST"},{"name":"NANOLOGICA AB","country":"SE","city":"STOCKHOLM","lat":"59.3491","lon":"18.0695"}],"url":"http:\/\/cordis.lab\/project\/nanocarriers-delivery-antimicrobial-agents-fight-resistance-mechanisms\/140249","rcn":"109285","cost":"3894894","funding":"3894894","project_acronym":"CYCLON HIT","start_date":"1393628400","end_date":"1519772400"},{"id":"140251","title":"Smart Nano-objects for Alteration of Lipid-bilayers","participants":[{"name":"UNIVERSITAT ROVIRA I VIRGILI","country":"ES","city":"TARRAGONA","lat":"41.2864","lon":"1.24796"},{"name":"LEIBNIZ-INSTITUT FUR POLYMERFORSCHUNG DRESDEN EV","country":"DE","city":"DRESDEN"},{"name":"IMPERIAL COLLEGE OF SCIENCE, TECHNOLOGY AND MEDICINE","country":"GB","city":"LONDON","lat":"51.4982","lon":"-0.174115"},{"name":"CENTRE NATIONAL DE LA RECHERCHE SCIENTIFIQUE","country":"FR","city":"PARIS","lat":"48.8432","lon":"2.26019"},{"name":"THE CHANCELLOR, MASTERS AND SCHOLARS OF THE UNIVERSITY OF CAMBRIDGE","country":"GB","city":"CAMBRIDGE","lat":"52.2053","lon":"0.116613"},{"name":"THE UNIVERSITY OF MANCHESTER","country":"GB","city":"MANCHESTER","lat":"53.4659","lon":"-2.23348"},{"name":"JOHANN WOLFGANG GOETHE UNIVERSITAET FRANKFURT AM MAIN","country":"DE","city":"FRANKFURT AM MAIN","lat":"50.1188","lon":"8.65298"},{"name":"BIOPHARMA TECHNOLOGY LTD","country":"GB","city":"WINCHESTER","lat":"51.0664","lon":"-1.29893"},{"name":"UNILEVER U.K. CENTRAL RESOURCES LIMITED","country":"GB","city":"LONDON","lat":"51.5117","lon":"-0.105064"}],"url":"http:\/\/cordis.lab\/project\/smart-nano-objects-alteration-lipid-bilayers\/140251","rcn":"110943","cost":"3645408","funding":"3645408","project_acronym":"SNAL","start_date":"1396303200","end_date":"1522447200"},{"id":"140253","title":"Ultrawide bandwidth photonics devices, sources and applications","participants":[{"name":"UNIVERSITY OF KENT","country":"GB","city":"CANTERBURY, KENT","lat":"51.2802","lon":"1.07891"},{"name":"NKT PHOTONICS A\/S","country":"DK","city":"BIRKEROD","lat":"55.8382","lon":"12.401"}],"url":"http:\/\/cordis.lab\/project\/ultrawide-bandwidth-photonics-devices-sources-and-applications\/140253","rcn":"109791","cost":"1466617","funding":"1466617","project_acronym":"UBAPHODESA","start_date":"1391209200","end_date":"1517353200"},{"id":"140257","title":"ADVanced communicAtions and iNformaTion processing in smArt Grid systEms","participants":[{"name":"THE UNIVERSITY OF EDINBURGH","country":"GB","city":"EDINBURGH","lat":"55.9475","lon":"-3.18648"},{"name":"AALBORG UNIVERSITET","country":"DK","city":"AALBORG","lat":"57.0149","lon":"9.9842"},{"name":"UNIVERZITET U NOVOM SADU FAKULTET TEHNICKIH NAUKA","country":"RS","city":"NOVI SAD","lat":"45.2464","lon":"19.8525"},{"name":"CENTRE TECNOLOGIC DE TELECOMUNICACIONS DE CATALUNYA","country":"ES","city":"CASTELLDEFELS","lat":"41.277","lon":"1.98956"},{"name":"UNIVERSIDAD DE SEVILLA","country":"ES","city":"SEVILLA","lat":"37.4257","lon":"-5.97898"},{"name":"FLEXITRICITY LIMITED","country":"UK","city":"EDINBURGH","lat":"55.9479","lon":"-3.20979"},{"name":"NEOGRID TECHNOLOGIES APS","country":"DK","city":"AALBORG OST","lat":"57.0124","lon":"9.9881"},{"name":"SCHNEIDER ELECTRIC DMS NS DOO ZA ELEKTROENERGETSKI INZINJERING NOVI SAD","country":"RS","city":"NOVI SAD","lat":"45.2408","lon":"19.8396"},{"name":"ENDESA DISTRIBUCION ELECTRICA S.L","country":"ES","city":"BARCELONA","lat":"41.375","lon":"2.16306"}],"url":"http:\/\/cordis.lab\/project\/advanced-communications-and-information-processing-smart-grid-systems\/140257","rcn":"109281","cost":"3596493","funding":"3596493","project_acronym":"ADVANTAGE","start_date":"1388530800","end_date":"1514674800"},{"id":"140258","title":"InP DHBT MMIC Technology for Millimeter-Wave Power Applications","participants":[{"name":"DANMARKS TEKNISKE UNIVERSITET","country":"DK","city":"KONGENS LYNGBY","lat":"55.786","lon":"12.5241"},{"name":"III V LAB","country":"FR","city":"MARCOUSSIS","lat":"48.6778","lon":"2.23977"}],"url":"http:\/\/cordis.lab\/project\/inp-dhbt-mmic-technology-millimeter-wave-power-applications\/140258","rcn":"111464","cost":"586043","funding":"586043","project_acronym":"IN-POWER","start_date":"1391209200","end_date":"1517353200"},{"id":"140261","title":"Max-imising the potential of CROP researchers","participants":[{"name":"NIAB TRADING LTD","country":"UK","city":"CAMBRIDGE CAMBRIDGESHIRE","lat":"52.2188","lon":"0.101502"},{"name":"WAGENINGEN UNIVERSITY","country":null,"city":null}],"url":"http:\/\/cordis.lab\/project\/max-imising-potential-crop-researchers\/140261","rcn":"111511","cost":"1467957","funding":"1467957","project_acronym":"MAX-CROP","start_date":"1388530800","end_date":"1514674800"},{"id":"140265","title":"MOTOrcycle Rider Integrated SafeTy","participants":[{"name":"UNIVERSITA DEGLI STUDI DI FIRENZE","country":"IT","city":"FLORENCE","lat":"43.7781","lon":"11.2588"},{"name":"TECHNISCHE UNIVERSITEIT DELFT","country":"NL","city":"DELFT","lat":"51.9991","lon":"4.37566"},{"name":"UNIVERSITA DEGLI STUDI DI PADOVA","country":"IT","city":"PADOVA","lat":"45.4297","lon":"11.9564"},{"name":"ZAPADOCESKA UNIVERZITA V PLZNI","country":"CZ","city":"PILSEN"},{"name":"UNIVERSITE DE STRASBOURG","country":"FR","city":"STRASBOURG","lat":"48.5801","lon":"7.76684"},{"name":"LUDWIG-MAXIMILIANS-UNIVERSITAET MUENCHEN","country":"DE","city":"MUENCHEN","lat":"48.1507","lon":"11.5804"},{"name":"LMS INTERNATIONAL NV","country":"BE","city":"HEVERLEE","lat":"50.8506","lon":"4.73337"},{"name":"TECHNISCHE UNIVERSITEIT EINDHOVEN","country":"NL","city":"EINDHOVEN","lat":"51.4478","lon":"5.48608"},{"name":"DAINESE SPA","country":"IT","city":"MOLVENA VI","lat":"45.7373","lon":"11.6203"}],"url":"http:\/\/cordis.lab\/project\/motorcycle-rider-integrated-safety\/140265","rcn":"111466","cost":"3725793","funding":"3725793","project_acronym":"MOTORIST","start_date":"1391209200","end_date":"1517353200"}]